Time,header.seq,header.stamp.secs,header.stamp.nsecs,header.frame_id,orientation.x,orientation.y,orientation.z,orientation.w,orientation_covariance_0,orientation_covariance_1,orientation_covariance_2,orientation_covariance_3,orientation_covariance_4,orientation_covariance_5,orientation_covariance_6,orientation_covariance_7,orientation_covariance_8,angular_velocity.x,angular_velocity.y,angular_velocity.z,angular_velocity_covariance_0,angular_velocity_covariance_1,angular_velocity_covariance_2,angular_velocity_covariance_3,angular_velocity_covariance_4,angular_velocity_covariance_5,angular_velocity_covariance_6,angular_velocity_covariance_7,angular_velocity_covariance_8,linear_acceleration.x,linear_acceleration.y,linear_acceleration.z,linear_acceleration_covariance_0,linear_acceleration_covariance_1,linear_acceleration_covariance_2,linear_acceleration_covariance_3,linear_acceleration_covariance_4,linear_acceleration_covariance_5,linear_acceleration_covariance_6,linear_acceleration_covariance_7,linear_acceleration_covariance_8
402.3,20105,402,300000000,base,-3.8987067276365513e-05,-0.0021288510926169217,-0.04157293381017047,0.9991332031553396,2.6030820491461885e-07,0.0,0.0,0.0,2.6030820491461885e-07,0.0,0.0,0.0,0.0,0.011992241040475452,0.0010453671221755717,-0.001123219000546895,2.5e-05,0.0,0.0,0.0,2.5e-05,0.0,0.0,0.0,2.5e-05,0.035268724097782006,-0.006135403712064787,9.804274524825374,2.5e-05,0.0,0.0,0.0,2.5e-05,0.0,0.0,0.0,2.5e-05
402.32,20106,402,320000000,base,-3.926664227365193e-05,-0.0021286966709553167,-0.04157292575752588,0.9991332038084677,2.6030820491461885e-07,0.0,0.0,0.0,2.6030820491461885e-07,0.0,0.0,0.0,0.0,-0.000623941554453829,0.013324670804313057,0.00017104257629716683,2.5e-05,0.0,0.0,0.0,2.5e-05,0.0,0.0,0.0,2.5e-05,0.03421504993969377,-0.001711363826177766,9.81409269558038,2.5e-05,0.0,0.0,0.0,2.5e-05,0.0,0.0,0.0,2.5e-05
402.34,20107,402,340000000,base,-3.918919714370069e-05,-0.002128810397314311,-0.04157291851774565,0.9991332038704429,2.6030820491461885e-07,0.0,0.0,0.0,2.6030820491461885e-07,0.0,0.0,0.0,0.0,0.008242518154646307,0.006490895001422288,-0.0012337086434781905,2.5e-05,0.0,0.0,0.0,2.5e-05,0.0,0.0,0.0,2.5e-05,0.04474151509573522,-0.00041692368538204195,9.81265945462577,2.5e-05,0.0,0.0,0.0,2.5e-05,0.0,0.0,0.0,2.5e-05
402.36,20108,402,360000000,base,-3.9010916192173636e-05,-0.002128859470977693,-0.04157291149557782,0.9991332040650446,2.6030820491461885e-07,0.0,0.0,0.0,2.6030820491461885e-07,0.0,0.0,0.0,0.0,0.00927294763547695,0.009935771530844155,0.00017511336894404108,2.5e-05,0.0,0.0,0.0,2.5e-05,0.0,0.0,0.0,2.5e-05,0.045038164238062436,0.015754848114884007,9.806010911466457,2.5e-05,0.0,0.0,0.0,2.5e-05,0.0,0.0,0.0,2.5e-05
402.38,20109,402,380000000,base,-3.918549053276053e-05,-0.002128920918238647,-0.04157290369616592,0.9991332042518106,2.6030820491461885e-07,0.0,0.0,0.0,2.6030820491461885e-07,0.0,0.0,0.0,0.0,-0.0021512215558389916,0.005108995305989585,0.0015924795919752758,2.5e-05,0.0,0.0,0.0,2.5e-05,0.0,0.0,0.0,2.5e-05,0.02865737862111591,-0.002670840905109338,9.802195259084758,2.5e-05,0.0,0.0,0.0,2.5e-05,0.0,0.0,0.0,2.5e-05
402.399,20110,402,400000000,base,-3.9356852778590704e-05,-0.0021289316249800453,-0.041572895900058256,0.9991332045466498,2.6030820491461885e-07,0.0,0.0,0.0,2.6030820491461885e-07,0.0,0.0,0.0,0.0,0.0005339883790073082,0.0016178797527802158,0.00463031325856153,2.5e-05,0.0,0.0,0.0,2.5e-05,0.0,0.0,0.0,2.5e-05,0.04462189733941881,-0.0006939637514218999,9.800071243033177,2.5e-05,0.0,0.0,0.0,2.5e-05,0.0,0.0,0.0,2.5e-05
402.42,20111,402,420000000,base,-3.926140479503499e-05,-0.0021286727052414398,-0.041572888669778485,0.9991332054029164,2.6030820491461885e-07,0.0,0.0,0.0,2.6030820491461885e-07,0.0,0.0,0.0,0.0,0.0037609460042878694,0.0035263062987503776,-0.013284407877524232,2.5e-05,0.0,0.0,0.0,2.5e-05,0.0,0.0,0.0,2.5e-05,0.03727427827597957,0.004595170954210649,9.802212850659188,2.5e-05,0.0,0.0,0.0,2.5e-05,0.0,0.0,0.0,2.5e-05
402.44,20112,402,440000000,base,-3.9348663235329534e-05,-0.0021286373754243098,-0.04157288105672555,0.9991332057915251,2.6030820491461885e-07,0.0,0.0,0.0,2.6030820491461885e-07,0.0,0.0,0.0,0.0,-0.0020501239246720833,0.0032118419948353326,-0.0038244754897726937,2.5e-05,0.0,0.0,0.0,2.5e-05,0.0,0.0,0.0,2.5e-05,0.038578542536526164,-0.00931657880630769,9.810818468177075,2.5e-05,0.0,0.0,0.0,2.5e-05,0.0,0.0,0.0,2.5e-05
402.46,20113,402,460000000,base,-3.9455211644894624e-05,-0.002128491958338385,-0.04157287339200996,0.9991332064160421,2.6030820491461885e-07,0.0,0.0,0.0,2.6030820491461885e-07,0.0,0.0,0.0,0.0,0.0065769444762533835,0.0074126053972286875,0.006088091438563231,2.5e-05,0.0,0.0,0.0,2.5e-05,0.0,0.0,0.0,2.5e-05,0.03959157252745629,-0.00656185537145339,9.80285533282271,2.5e-05,0.0,0.0,0.0,2.5e-05,0.0,0.0,0.0,2.5e-05
402.48,20114,402,480000000,base,-3.935431716950255e-05,-0.0021285658745224343,-0.04157286620556841,0.9991332065615723,2.6030820491461885e-07,0.0,0.0,0.0,2.6030820491461885e-07,0.0,0.0,0.0,0.0,0.003773220607484087,0.012481045132944027,-0.002770745314382819,2.5e-05,0.0,0.0,0.0,2.5e-05,0.0,0.0,0.0,2.5e-05,0.047818753254888255,0.0033296271516077636,9.800654691056797,2.5e-05,0.0,0.0,0.0,2.5e-05,0.0,0.0,0.0,2.5e-05
402.5,20115,402,500000000,base,-3.9242966145460945e-05,-0.00212824516823333,-0.04157285900780965,0.9991332075486281,2.6030820491461885e-07,0.0,0.0,0.0,2.6030820491461885e-07,0.0,0.0,0.0,0.0,0.011763263665571637,0.017927312056813915,-0.008928099272074322,2.5e-05,0.0,0.0,0.0,2.5e-05,0.0,0.0,0.0,2.5e-05,0.040482096701640054,0.003175529517123096,9.801591808309333,2.5e-05,0.0,0.0,0.0,2.5e-05,0.0,0.0,0.0,2.5e-05
402.52,20116,402,520000000,base,-3.931628291822499e-05,-0.00212849069448871,-0.041572851453459195,0.9991332073370507,2.6030820491461885e-07,0.0,0.0,0.0,2.6030820491461885e-07,0.0,0.0,0.0,0.0,0.007020959046820897,0.0075153598342749695,-0.002536592568862331,2.5e-05,0.0,0.0,0.0,2.5e-05,0.0,0.0,0.0,2.5e-05,0.047420101746648624,0.0020382992624356873,9.801999746224531,2.5e-05,0.0,0.0,0.0,2.5e-05,0.0,0.0,0.0,2.5e-05
402.54,20117,402,540000000,base,-3.925500928842997e-05,-0.0021284446453797043,-0.04157284417104381,0.9991332077405725,2.6030820491461885e-07,0.0,0.0,0.0,2.6030820491461885e-07,0.0,0.0,0.0,0.0,0.00030677405455823087,0.004635580790902778,-0.0064975119299926,2.5e-05,0.0,0.0,0.0,2.5e-05,0.0,0.0,0.0,2.5e-05,0.05613456498241188,0.009660977202235679,9.794992382156561,2.5e-05,0.0,0.0,0.0,2.5e-05,0.0,0.0,0.0,2.5e-05
402.56,20118,402,560000000,base,-3.9204243399943185e-05,-0.002128233776572523,-0.04157283685148047,0.9991332084963146,2.6030820491461885e-07,0.0,0.0,0.0,2.6030820491461885e-07,0.0,0.0,0.0,0.0,-0.003966482483582512,0.006574170122635517,0.003024230614393127,2.5e-05,0.0,0.0,0.0,2.5e-05,0.0,0.0,0.0,2.5e-05,0.044478583222524036,0.001052562876437519,9.81490779560919,2.5e-05,0.0,0.0,0.0,2.5e-05,0.0,0.0,0.0,2.5e-05
402.58,20119,402,580000000,base,-3.92522565083413e-05,-0.002128198786273004,-0.04157282933020838,0.9991332088819127,2.6030820491461885e-07,0.0,0.0,0.0,2.6030820491461885e-07,0.0,0.0,0.0,0.0,0.006805756158295308,0.009364518500480645,-0.005776401127260902,2.5e-05,0.0,0.0,0.0,2.5e-05,0.0,0.0,0.0,2.5e-05,0.04061762070393838,-0.0018814769176262762,9.80341866960724,2.5e-05,0.0,0.0,0.0,2.5e-05,0.0,0.0,0.0,2.5e-05
402.6,20120,402,600000000,base,-3.9048316398304254e-05,-0.002128229797075114,-0.041572822371836564,0.9991332091133791,2.6030820491461885e-07,0.0,0.0,0.0,2.6030820491461885e-07,0.0,0.0,0.0,0.0,0.0020605470232143734,0.0010571685760265687,-0.009354350675410787,2.5e-05,0.0,0.0,0.0,2.5e-05,0.0,0.0,0.0,2.5e-05,0.04244192088725102,0.003863946763835789,9.811812356138502,2.5e-05,0.0,0.0,0.0,2.5e-05,0.0,0.0,0.0,2.5e-05
402.62,20121,402,620000000,base,-3.905330082267415e-05,-0.0021283013384172144,-0.04157281495651251,0.9991332092693367,2.6030820491461885e-07,0.0,0.0,0.0,2.6030820491461885e-07,0.0,0.0,0.0,0.0,-0.002024234981363183,0.010512862568686542,0.005421127096630564,2.5e-05,0.0,0.0,0.0,2.5e-05,0.0,0.0,0.0,2.5e-05,0.039250821306593894,0.011333660942479043,9.80726275498981,2.5e-05,0.0,0.0,0.0,2.5e-05,0.0,0.0,0.0,2.5e-05
402.64,20122,402,640000000,base,-3.916662922459735e-05,-0.0021281803302470297,-0.041572807285554236,0.9991332098418385,2.6030820491461885e-07,0.0,0.0,0.0,2.6030820491461885e-07,0.0,0.0,0.0,0.0,-0.006411899752551879,-0.004502770535027295,0.0016549169464544248,2.5e-05,0.0,0.0,0.0,2.5e-05,0.0,0.0,0.0,2.5e-05,0.0394585005018885,2.2047428513952052e-05,9.809556722162268,2.5e-05,0.0,0.0,0.0,2.5e-05,0.0,0.0,0.0,2.5e-05
402.66,20123,402,660000000,base,-3.9338399665685416e-05,-0.002128200197861133,-0.04157279949883256,0.999133210116768,2.6030820491461885e-07,0.0,0.0,0.0,2.6030820491461885e-07,0.0,0.0,0.0,0.0,0.009809565531310335,0.0015701800239892704,-0.0011695366958822955,2.5e-05,0.0,0.0,0.0,2.5e-05,0.0,0.0,0.0,2.5e-05,0.04213955180395961,0.00396597849142385,9.801704376704896,2.5e-05,0.0,0.0,0.0,2.5e-05,0.0,0.0,0.0,2.5e-05
402.68,20124,402,680000000,base,-3.9359506991076224e-05,-0.0021282395622105074,-0.041572792047229475,0.9991332103421409,2.6030820491461885e-07,0.0,0.0,0.0,2.6030820491461885e-07,0.0,0.0,0.0,0.0,0.004733593871432586,0.007677561389324147,0.00414665477842096,2.5e-05,0.0,0.0,0.0,2.5e-05,0.0,0.0,0.0,2.5e-05,0.0436149953482277,0.003656105266057823,9.805088295684937,2.5e-05,0.0,0.0,0.0,2.5e-05,0.0,0.0,0.0,2.5e-05
402.7,20125,402,700000000,base,-3.930656725501867e-05,-0.0021281157369019525,-0.041572784745311994,0.9991332109118004,2.6030820491461885e-07,0.0,0.0,0.0,2.6030820491461885e-07,0.0,0.0,0.0,0.0,0.006710673094357421,0.007036236993715696,-0.0045421951263779825,2.5e-05,0.0,0.0,0.0,2.5e-05,0.0,0.0,0.0,2.5e-05,0.04832566645991221,0.0019350734478958298,9.807437802615008,2.5e-05,0.0,0.0,0.0,2.5e-05,0.0,0.0,0.0,2.5e-05
402.72,20126,402,720000000,base,-3.9236712914517115e-05,-0.002128218953681299,-0.041572777501689896,0.9991332109960915,2.6030820491461885e-07,0.0,0.0,0.0,2.6030820491461885e-07,0.0,0.0,0.0,0.0,0.003814759006201396,-0.0028524486530226915,0.00503487420256769,2.5e-05,0.0,0.0,0.0,2.5e-05,0.0,0.0,0.0,2.5e-05,0.04032722712398104,-0.002972987653742733,9.812626597184664,2.5e-05,0.0,0.0,0.0,2.5e-05,0.0,0.0,0.0,2.5e-05
402.74,20127,402,740000000,base,-3.926662055342074e-05,-0.0021283588043781933,-0.041572770041790275,0.9991332110074135,2.6030820491461885e-07,0.0,0.0,0.0,2.6030820491461885e-07,0.0,0.0,0.0,0.0,0.0009611808034155507,0.00031205941474276005,0.004778300343389712,2.5e-05,0.0,0.0,0.0,2.5e-05,0.0,0.0,0.0,2.5e-05,0.04728435389547993,0.004688053357479989,9.80010895423566,2.5e-05,0.0,0.0,0.0,2.5e-05,0.0,0.0,0.0,2.5e-05
402.76,20128,402,760000000,base,-3.915455616528987e-05,-0.002128318629100509,-0.041572762880050275,0.9991332113953838,2.6030820491461885e-07,0.0,0.0,0.0,2.6030820491461885e-07,0.0,0.0,0.0,0.0,0.0013423501937099686,0.009218175769132007,0.0010701818558751972,2.5e-05,0.0,0.0,0.0,2.5e-05,0.0,0.0,0.0,2.5e-05,0.041510109118335296,-0.006474644357273947,9.798418497184942,2.5e-05,0.0,0.0,0.0,2.5e-05,0.0,0.0,0.0,2.5e-05
402.78,20129,402,780000000,base,-3.926764178815029e-05,-0.002128475375106695,-0.04157275523945942,0.9991332113749547,2.6030820491461885e-07,0.0,0.0,0.0,2.6030820491461885e-07,0.0,0.0,0.0,0.0,0.012294421412408645,0.0023579631850425857,-0.005784308523090748,2.5e-05,0.0,0.0,0.0,2.5e-05,0.0,0.0,0.0,2.5e-05,0.048937754920532144,-0.008309464909001862,9.804510729335256,2.5e-05,0.0,0.0,0.0,2.5e-05,0.0,0.0,0.0,2.5e-05
402.801,20130,402,800000000,base,-3.922316472587242e-05,-0.0021285211538355363,-0.041572747937601975,0.9991332115829988,2.6030820491461885e-07,0.0,0.0,0.0,2.6030820491461885e-07,0.0,0.0,0.0,0.0,-0.012676080995588295,0.00025086687830402807,-0.00625573354616483,2.5e-05,0.0,0.0,0.0,2.5e-05,0.0,0.0,0.0,2.5e-05,0.04285292935461928,0.003923527435336673,9.801542306593197,2.5e-05,0.0,0.0,0.0,2.5e-05,0.0,0.0,0.0,2.5e-05
402.82,20131,402,820000000,base,-3.9285356624911054e-05,-0.0021286064970382217,-0.04157274040447711,0.9991332117121837,2.6030820491461885e-07,0.0,0.0,0.0,2.6030820491461885e-07,0.0,0.0,0.0,0.0,0.003019152371123718,0.003257541377286242,0.008605330148731409,2.5e-05,0.0,0.0,0.0,2.5e-05,0.0,0.0,0.0,2.5e-05,0.03689201365771206,-0.006669048797127484,9.800081023641217,2.5e-05,0.0,0.0,0.0,2.5e-05,0.0,0.0,0.0,2.5e-05
402.842,20132,402,840000000,base,-3.906094582764895e-05,-0.0021286825673763705,-0.041572733504054986,0.9991332118460334,2.6030820491461885e-07,0.0,0.0,0.0,2.6030820491461885e-07,0.0,0.0,0.0,0.0,0.004127379304654264,0.012299998691002074,0.0018937781873105356,2.5e-05,0.0,0.0,0.0,2.5e-05,0.0,0.0,0.0,2.5e-05,0.03734787906524038,0.015186635298194187,9.809785092415389,2.5e-05,0.0,0.0,0.0,2.5e-05,0.0,0.0,0.0,2.5e-05
402.86,20133,402,860000000,base,-3.91214752918627e-05,-0.002128703580263125,-0.041572725970327046,0.9991332121123655,2.6030820491461885e-07,0.0,0.0,0.0,2.6030820491461885e-07,0.0,0.0,0.0,0.0,0.009987448554911703,0.005856951027488841,-0.00978910010663281,2.5e-05,0.0,0.0,0.0,2.5e-05,0.0,0.0,0.0,2.5e-05,0.04200454806051718,0.0072182909308043585,9.806944785967959,2.5e-05,0.0,0.0,0.0,2.5e-05,0.0,0.0,0.0,2.5e-05
402.88,20134,402,880000000,base,-3.91652408482997e-05,-0.0021286967200194375,-0.04157271847185761,0.9991332124372695,2.6030820491461885e-07,0.0,0.0,0.0,2.6030820491461885e-07,0.0,0.0,0.0,0.0,0.006497520706230126,0.011325697433790988,0.0013457541151886208,2.5e-05,0.0,0.0,0.0,2.5e-05,0.0,0.0,0.0,2.5e-05,0.038298229681024816,-0.004875883844563961,9.799632040769723,2.5e-05,0.0,0.0,0.0,2.5e-05,0.0,0.0,0.0,2.5e-05
402.9,20135,402,900000000,base,-3.917581447914026e-05,-0.0021286952781962394,-0.04157271104788366,0.9991332127488292,2.6030820491461885e-07,0.0,0.0,0.0,2.6030820491461885e-07,0.0,0.0,0.0,0.0,0.0055677738861622935,0.004713325101644103,0.0007488329761223461,2.5e-05,0.0,0.0,0.0,2.5e-05,0.0,0.0,0.0,2.5e-05,0.037950417016614696,-0.010712363026187083,9.810693602315624,2.5e-05,0.0,0.0,0.0,2.5e-05,0.0,0.0,0.0,2.5e-05
402.92,20136,402,920000000,base,-3.935145906435794e-05,-0.00212868863520791,-0.041572703259706086,0.9991332130801364,2.6030820491461885e-07,0.0,0.0,0.0,2.6030820491461885e-07,0.0,0.0,0.0,0.0,0.011865994863770516,0.008092271886324161,-0.004726865406837996,2.5e-05,0.0,0.0,0.0,2.5e-05,0.0,0.0,0.0,2.5e-05,0.03615200007702034,0.0025708873961920627,9.804664335848656,2.5e-05,0.0,0.0,0.0,2.5e-05,0.0,0.0,0.0,2.5e-05
402.94,20137,402,940000000,base,-3.92226732968838e-05,-0.002128669030970312,-0.04157269614326646,0.9991332134230743,2.6030820491461885e-07,0.0,0.0,0.0,2.6030820491461885e-07,0.0,0.0,0.0,0.0,0.011773144072787364,0.006799439147401529,-0.0012699450556497573,2.5e-05,0.0,0.0,0.0,2.5e-05,0.0,0.0,0.0,2.5e-05,0.047225903550798545,0.0006356420173507463,9.811773208498133,2.5e-05,0.0,0.0,0.0,2.5e-05,0.0,0.0,0.0,2.5e-05
402.96,20138,402,960000000,base,-3.9116297621587195e-05,-0.0021287813696312676,-0.04157268898982512,0.9991332134855447,2.6030820491461885e-07,0.0,0.0,0.0,2.6030820491461885e-07,0.0,0.0,0.0,0.0,0.010909780843173924,0.006502717439625959,-0.005825052593283363,2.5e-05,0.0,0.0,0.0,2.5e-05,0.0,0.0,0.0,2.5e-05,0.03560795935753647,0.005835047495948091,9.799071967660504,2.5e-05,0.0,0.0,0.0,2.5e-05,0.0,0.0,0.0,2.5e-05
402.98,20139,402,980000000,base,-3.896778421374156e-05,-0.0021287065969270986,-0.0415726819134821,0.9991332139450957,2.6030820491461885e-07,0.0,0.0,0.0,2.6030820491461885e-07,0.0,0.0,0.0,0.0,0.003448025408189917,0.006277334048214606,-0.006807552925504402,2.5e-05,0.0,0.0,0.0,2.5e-05,0.0,0.0,0.0,2.5e-05,0.045765782337217335,0.0075303486705532805,9.806077926567697,2.5e-05,0.0,0.0,0.0,2.5e-05,0.0,0.0,0.0,2.5e-05
403.0,20140,403,0,base,-3.89592784542937e-05,-0.002128639191814412,-0.04157267452939355,0.9991332143962781,2.6030820491461885e-07,0.0,0.0,0.0,2.6030820491461885e-07,0.0,0.0,0.0,0.0,0.007947874654416261,0.015477487850615115,-0.0015756576036746169,2.5e-05,0.0,0.0,0.0,2.5e-05,0.0,0.0,0.0,2.5e-05,0.04255564581781276,-0.004271770440496177,9.802925938068908,2.5e-05,0.0,0.0,0.0,2.5e-05,0.0,0.0,0.0,2.5e-05
403.02,20141,403,20000000,base,-3.901814307035109e-05,-0.0021287110619676642,-0.04157266700968815,0.9991332145537454,2.6030820491461885e-07,0.0,0.0,0.0,2.6030820491461885e-07,0.0,0.0,0.0,0.0,-0.0005464790756224664,0.009729168337733447,-0.0115059914141374,2.5e-05,0.0,0.0,0.0,2.5e-05,0.0,0.0,0.0,2.5e-05,0.03410939561556188,-0.0033506448408529917,9.80720318908138,2.5e-05,0.0,0.0,0.0,2.5e-05,0.0,0.0,0.0,2.5e-05
403.04,20142,403,40000000,base,-3.890021838242393e-05,-0.002128496668814477,-0.041572659855548436,0.9991332153127724,2.6030820491461885e-07,0.0,0.0,0.0,2.6030820491461885e-07,0.0,0.0,0.0,0.0,-0.0038880266276197983,0.007166663013305945,-0.008209842825647531,2.5e-05,0.0,0.0,0.0,2.5e-05,0.0,0.0,0.0,2.5e-05,0.04140472971579724,-0.005385881312843519,9.804154798942307,2.5e-05,0.0,0.0,0.0,2.5e-05,0.0,0.0,0.0,2.5e-05
403.06,20143,403,60000000,base,-3.902155296510416e-05,-0.002128740577972575,-0.041572652214692765,0.9991332151063274,2.6030820491461885e-07,0.0,0.0,0.0,2.6030820491461885e-07,0.0,0.0,0.0,0.0,0.00428409388997315,0.0025049165166558572,-0.0061361746530409,2.5e-05,0.0,0.0,0.0,2.5e-05,0.0,0.0,0.0,2.5e-05,0.04181845990588604,0.001222694654345889,9.81104725113793,2.5e-05,0.0,0.0,0.0,2.5e-05,0.0,0.0,0.0,2.5e-05
403.08,20144,403,80000000,base,-3.9137094901570626e-05,-0.002128627535533323,-0.041572644555554504,0.9991332156613353,2.6030820491461885e-07,0.0,0.0,0.0,2.6030820491461885e-07,0.0,0.0,0.0,0.0,0.003419033248051791,0.006160314023553516,-0.006055796934679567,2.5e-05,0.0,0.0,0.0,2.5e-05,0.0,0.0,0.0,2.5e-05,0.04101232354107416,0.0015107219567211932,9.803873269903272,2.5e-05,0.0,0.0,0.0,2.5e-05,0.0,0.0,0.0,2.5e-05
403.1,20145,403,100000000,base,-3.913136598808742e-05,-0.0021284387689577285,-0.041572637158153944,0.9991332163715003,2.6030820491461885e-07,0.0,0.0,0.0,2.6030820491461885e-07,0.0,0.0,0.0,0.0,-0.00884755872214167,-3.760915142154031e-05,-0.007387845768338166,2.5e-05,0.0,0.0,0.0,2.5e-05,0.0,0.0,0.0,2.5e-05,0.043034645213838,-0.0035284634701053443,9.803688975141402,2.5e-05,0.0,0.0,0.0,2.5e-05,0.0,0.0,0.0,2.5e-05
403.12,20146,403,120000000,base,-3.89387278967735e-05,-0.002128366551067505,-0.04157263018454696,0.9991332168230314,2.6030820491461885e-07,0.0,0.0,0.0,2.6030820491461885e-07,0.0,0.0,0.0,0.0,0.006324717148742035,0.005782725633388523,0.0005620940259768459,2.5e-05,0.0,0.0,0.0,2.5e-05,0.0,0.0,0.0,2.5e-05,0.04188625951477,0.005680847250384466,9.809659561381297,2.5e-05,0.0,0.0,0.0,2.5e-05,0.0,0.0,0.0,2.5e-05
403.14,20147,403,140000000,base,-3.897912371706956e-05,-0.002128337714367556,-0.04157262270100591,0.9991332171942646,2.6030820491461885e-07,0.0,0.0,0.0,2.6030820491461885e-07,0.0,0.0,0.0,0.0,0.0013838246786923756,0.0037142751954118798,-0.007767519633985263,2.5e-05,0.0,0.0,0.0,2.5e-05,0.0,0.0,0.0,2.5e-05,0.04367749530421691,0.0025821486018031015,9.816799078677269,2.5e-05,0.0,0.0,0.0,2.5e-05,0.0,0.0,0.0,2.5e-05
403.16,20148,403,160000000,base,-3.864056713049399e-05,-0.0021283369457506403,-0.041572616057394374,0.9991332174854846,2.6030820491461885e-07,0.0,0.0,0.0,2.6030820491461885e-07,0.0,0.0,0.0,0.0,0.001150628496620022,0.006042781765949504,0.001832630094065262,2.5e-05,0.0,0.0,0.0,2.5e-05,0.0,0.0,0.0,2.5e-05,0.04136996997416628,0.00706128575805883,9.807449700951945,2.5e-05,0.0,0.0,0.0,2.5e-05,0.0,0.0,0.0,2.5e-05
403.18,20149,403,180000000,base,-3.85111017607073e-05,-0.002128347258321249,-0.04157260895383571,0.9991332177640849,2.6030820491461885e-07,0.0,0.0,0.0,2.6030820491461885e-07,0.0,0.0,0.0,0.0,-0.00039982449063279005,0.016150796677254484,0.0013901960221096965,2.5e-05,0.0,0.0,0.0,2.5e-05,0.0,0.0,0.0,2.5e-05,0.040724950346104016,-0.004579709041332818,9.799650963007569,2.5e-05,0.0,0.0,0.0,2.5e-05,0.0,0.0,0.0,2.5e-05
403.2,20150,403,200000000,base,-3.84126696711423e-05,-0.002128348876219546,-0.04157260178170875,0.9991332180628504,2.6030820491461885e-07,0.0,0.0,0.0,2.6030820491461885e-07,0.0,0.0,0.0,0.0,0.007561660643234541,0.00570865363113186,-0.00799482863007876,2.5e-05,0.0,0.0,0.0,2.5e-05,0.0,0.0,0.0,2.5e-05,0.04209550390085205,-0.01155400138051016,9.806579357876622,2.5e-05,0.0,0.0,0.0,2.5e-05,0.0,0.0,0.0,2.5e-05
403.22,20151,403,220000000,base,-3.845532667110637e-05,-0.00212831308216016,-0.04157259429546008,0.9991332184489499,2.6030820491461885e-07,0.0,0.0,0.0,2.6030820491461885e-07,0.0,0.0,0.0,0.0,-0.007949026375608643,0.00306497709592173,-0.006450011044980529,2.5e-05,0.0,0.0,0.0,2.5e-05,0.0,0.0,0.0,2.5e-05,0.03041124764256474,-0.0065152695390734774,9.818201468462982,2.5e-05,0.0,0.0,0.0,2.5e-05,0.0,0.0,0.0,2.5e-05
403.24,20152,403,240000000,base,-3.8583340035905506e-05,-0.002128266062475613,-0.04157258662047582,0.9991332188635188,2.6030820491461885e-07,0.0,0.0,0.0,2.6030820491461885e-07,0.0,0.0,0.0,0.0,-0.007084067546873725,0.010947391172619173,-0.006016363129264984,2.5e-05,0.0,0.0,0.0,2.5e-05,0.0,0.0,0.0,2.5e-05,0.035005923779770555,0.013096769868704887,9.810110629386077,2.5e-05,0.0,0.0,0.0,2.5e-05,0.0,0.0,0.0,2.5e-05
403.26,20153,403,260000000,base,-3.851665311313843e-05,-0.002128292637320041,-0.04157257938265962,0.9991332191106398,2.6030820491461885e-07,0.0,0.0,0.0,2.6030820491461885e-07,0.0,0.0,0.0,0.0,0.00045302772797595724,0.01509968448968923,0.0057434312009316275,2.5e-05,0.0,0.0,0.0,2.5e-05,0.0,0.0,0.0,2.5e-05,0.04499533575570211,0.00012165074506674165,9.807562655027347,2.5e-05,0.0,0.0,0.0,2.5e-05,0.0,0.0,0.0,2.5e-05
403.28,20154,403,280000000,base,-3.8596630317736103e-05,-0.0021283314905953597,-0.04157257182283957,0.9991332193393436,2.6030820491461885e-07,0.0,0.0,0.0,2.6030820491461885e-07,0.0,0.0,0.0,0.0,-0.004957483035853395,0.006848595737692116,-0.0036850644166416804,2.5e-05,0.0,0.0,0.0,2.5e-05,0.0,0.0,0.0,2.5e-05,0.0392049645423816,0.004128485328752056,9.800848390349461,2.5e-05,0.0,0.0,0.0,2.5e-05,0.0,0.0,0.0,2.5e-05
403.3,20155,403,300000000,base,-3.840140462367914e-05,-0.0021282173963278702,-0.041572564857742,0.999133219879709,2.6030820491461885e-07,0.0,0.0,0.0,2.6030820491461885e-07,0.0,0.0,0.0,0.0,0.0027022674521604553,0.004718035341508912,-0.0005936183566340792,2.5e-05,0.0,0.0,0.0,2.5e-05,0.0,0.0,0.0,2.5e-05,0.046266281869935325,0.0043914361800710035,9.802683583142382,2.5e-05,0.0,0.0,0.0,2.5e-05,0.0,0.0,0.0,2.5e-05
403.32,20156,403,320000000,base,-3.853678224308292e-05,-0.0021283267139698423,-0.04157255718333358,0.9991332199609587,2.6030820491461885e-07,0.0,0.0,0.0,2.6030820491461885e-07,0.0,0.0,0.0,0.0,0.005762994855152705,0.0003235790394267864,-0.00807396339060096,2.5e-05,0.0,0.0,0.0,2.5e-05,0.0,0.0,0.0,2.5e-05,0.04524320907405789,-0.002664762925976288,9.804013953909747,2.5e-05,0.0,0.0,0.0,2.5e-05,0.0,0.0,0.0,2.5e-05
403.34,20157,403,340000000,base,-3.862006259292064e-05,-0.002128294219367307,-0.04157254961203784,0.9991332203419927,2.6030820491461885e-07,0.0,0.0,0.0,2.6030820491461885e-07,0.0,0.0,0.0,0.0,-0.006825675123693695,0.0018435841162242088,-1.2716964601117587e-05,2.5e-05,0.0,0.0,0.0,2.5e-05,0.0,0.0,0.0,2.5e-05,0.035299942175299456,0.00494502565379292,9.807985372424248,2.5e-05,0.0,0.0,0.0,2.5e-05,0.0,0.0,0.0,2.5e-05
403.36,20158,403,360000000,base,-3.862339032731125e-05,-0.0021282881052785536,-0.04157254222034831,0.9991332206624457,2.6030820491461885e-07,0.0,0.0,0.0,2.6030820491461885e-07,0.0,0.0,0.0,0.0,0.0028582384909167933,0.005925526600981201,-0.0014836254138874798,2.5e-05,0.0,0.0,0.0,2.5e-05,0.0,0.0,0.0,2.5e-05,0.028479709011502617,0.0032276852617107695,9.813753441215983,2.5e-05,0.0,0.0,0.0,2.5e-05,0.0,0.0,0.0,2.5e-05
403.38,20159,403,380000000,base,-3.87272229244973e-05,-0.0021283655378791285,-0.04157253461492208,0.9991332208099328,2.6030820491461885e-07,0.0,0.0,0.0,2.6030820491461885e-07,0.0,0.0,0.0,0.0,0.0028793923197158004,0.0112396247425591,-0.009474226301335239,2.5e-05,0.0,0.0,0.0,2.5e-05,0.0,0.0,0.0,2.5e-05,0.03651515171311791,0.0038092335624142657,9.79713499481756,2.5e-05,0.0,0.0,0.0,2.5e-05,0.0,0.0,0.0,2.5e-05
403.4,20160,403,400000000,base,-3.877699994542671e-05,-0.002128540172349213,-0.04157252713823542,0.999133220747073,2.6030820491461885e-07,0.0,0.0,0.0,2.6030820491461885e-07,0.0,0.0,0.0,0.0,0.00042635203247875104,0.004944311216333047,0.002610709019475152,2.5e-05,0.0,0.0,0.0,2.5e-05,0.0,0.0,0.0,2.5e-05,0.0479586186697475,-0.00636929363252501,9.805967461745132,2.5e-05,0.0,0.0,0.0,2.5e-05,0.0,0.0,0.0,2.5e-05
403.42,20161,403,420000000,base,-3.883239739663309e-05,-0.0021285862155677768,-0.0415725196384032,0.999133220958888,2.6030820491461885e-07,0.0,0.0,0.0,2.6030820491461885e-07,0.0,0.0,0.0,0.0,0.011323630758780474,0.002530643260780595,-0.010756566131590189,2.5e-05,0.0,0.0,0.0,2.5e-05,0.0,0.0,0.0,2.5e-05,0.04833068526522529,-0.001854256993594251,9.804888545960452,2.5e-05,0.0,0.0,0.0,2.5e-05,0.0,0.0,0.0,2.5e-05
403.44,20162,403,440000000,base,-3.878057537174207e-05,-0.0021287589891726584,-0.04157251238732532,0.9991332208945105,2.6030820491461885e-07,0.0,0.0,0.0,2.6030820491461885e-07,0.0,0.0,0.0,0.0,0.00035713528177033684,0.008203682860281591,-0.0014118834558485502,2.5e-05,0.0,0.0,0.0,2.5e-05,0.0,0.0,0.0,2.5e-05,0.04484568387354028,-0.007217221601744756,9.815339371157137,2.5e-05,0.0,0.0,0.0,2.5e-05,0.0,0.0,0.0,2.5e-05
403.46,20163,403,460000000,base,-3.8882671368127987e-05,-0.0021286947919605947,-0.04157250477601028,0.9991332213440153,2.6030820491461885e-07,0.0,0.0,0.0,2.6030820491461885e-07,0.0,0.0,0.0,0.0,-0.006761180511081208,0.005694426005944341,0.003903804312610397,2.5e-05,0.0,0.0,0.0,2.5e-05,0.0,0.0,0.0,2.5e-05,0.04663209473652806,-0.0009165343418828316,9.806381714131089,2.5e-05,0.0,0.0,0.0,2.5e-05,0.0,0.0,0.0,2.5e-05
403.48,20164,403,480000000,base,-3.877072773759616e-05,-0.0021287349016573813,-0.04157249764730438,0.9991332215595244,2.6030820491461885e-07,0.0,0.0,0.0,2.6030820491461885e-07,0.0,0.0,0.0,0.0,0.00877260992943012,0.0029385441134854155,0.0059261524382038765,2.5e-05,0.0,0.0,0.0,2.5e-05,0.0,0.0,0.0,2.5e-05,0.041369916977508546,0.0030727003553795706,9.810649449338355,2.5e-05,0.0,0.0,0.0,2.5e-05,0.0,0.0,0.0,2.5e-05
403.5,20165,403,500000000,base,-3.8891490889346645e-05,-0.0021285796832228314,-0.04157248998810905,0.9991332222042127,2.6030820491461885e-07,0.0,0.0,0.0,2.6030820491461885e-07,0.0,0.0,0.0,0.0,0.006404649373396158,0.003941880157320636,-0.00025239781391957054,2.5e-05,0.0,0.0,0.0,2.5e-05,0.0,0.0,0.0,2.5e-05,0.04193067691569048,0.0019883790743917603,9.817024956111203,2.5e-05,0.0,0.0,0.0,2.5e-05,0.0,0.0,0.0,2.5e-05
403.52,20166,403,520000000,base,-3.881023604868872e-05,-0.0021285223546441026,-0.04157248278440787,0.9991332226292405,2.6030820491461885e-07,0.0,0.0,0.0,2.6030820491461885e-07,0.0,0.0,0.0,0.0,0.0034729465273024888,0.015021678284417611,0.00047486696435987245,2.5e-05,0.0,0.0,0.0,2.5e-05,0.0,0.0,0.0,2.5e-05,0.04915391101903366,-0.0017005849080948857,9.80530447736878,2.5e-05,0.0,0.0,0.0,2.5e-05,0.0,0.0,0.0,2.5e-05
403.54,20167,403,540000000,base,-3.8896154163668554e-05,-0.0021284396553070965,-0.041572475210059676,0.9991332231172337,2.6030820491461885e-07,0.0,0.0,0.0,2.6030820491461885e-07,0.0,0.0,0.0,0.0,0.007590731774338365,0.0014717126392680899,0.0033153286833982557,2.5e-05,0.0,0.0,0.0,2.5e-05,0.0,0.0,0.0,2.5e-05,0.03413159748201201,-0.005698634865753092,9.807511174911529,2.5e-05,0.0,0.0,0.0,2.5e-05,0.0,0.0,0.0,2.5e-05
403.56,20168,403,560000000,base,-3.8908767665770145e-05,-0.0021283918220985393,-0.04157246780139664,0.9991332235269035,2.6030820491461885e-07,0.0,0.0,0.0,2.6030820491461885e-07,0.0,0.0,0.0,0.0,0.00807545263439776,0.006969558292591272,-0.0021425170702548887,2.5e-05,0.0,0.0,0.0,2.5e-05,0.0,0.0,0.0,2.5e-05,0.038825503761819105,-0.0043925011932474094,9.803188783236624,2.5e-05,0.0,0.0,0.0,2.5e-05,0.0,0.0,0.0,2.5e-05
403.58,20169,403,580000000,base,-3.9009189006793024e-05,-0.0021283406161098683,-0.041572460199281104,0.9991332239483804,2.6030820491461885e-07,0.0,0.0,0.0,2.6030820491461885e-07,0.0,0.0,0.0,0.0,0.0035389185719947045,0.01405391898812585,-0.000525467790040101,2.5e-05,0.0,0.0,0.0,2.5e-05,0.0,0.0,0.0,2.5e-05,0.04195466980006958,0.007480043845284949,9.805357813805232,2.5e-05,0.0,0.0,0.0,2.5e-05,0.0,0.0,0.0,2.5e-05
403.6,20170,403,600000000,base,-3.923183885468079e-05,-0.002128251088529461,-0.0415724523245957,0.9991332244580232,2.6030820491461885e-07,0.0,0.0,0.0,2.6030820491461885e-07,0.0,0.0,0.0,0.0,0.0008420675081272414,0.006786506800054218,-0.0010975938568447618,2.5e-05,0.0,0.0,0.0,2.5e-05,0.0,0.0,0.0,2.5e-05,0.03873036256655519,-0.0006132408394842405,9.810750951954969,2.5e-05,0.0,0.0,0.0,2.5e-05,0.0,0.0,0.0,2.5e-05
403.62,20171,403,620000000,base,-3.928203074208907e-05,-0.0021280774517003476,-0.04157244482391454,0.9991332251379914,2.6030820491461885e-07,0.0,0.0,0.0,2.6030820491461885e-07,0.0,0.0,0.0,0.0,0.005297605696771773,-0.003706103726307036,-0.007982430448118085,2.5e-05,0.0,0.0,0.0,2.5e-05,0.0,0.0,0.0,2.5e-05,0.04238349548357505,0.007259620549468487,9.812157475654361,2.5e-05,0.0,0.0,0.0,2.5e-05,0.0,0.0,0.0,2.5e-05
403.64,20172,403,640000000,base,-3.9291288526870134e-05,-0.002128371702108163,-0.041572437456057,0.9991332248174187,2.6030820491461885e-07,0.0,0.0,0.0,2.6030820491461885e-07,0.0,0.0,0.0,0.0,-0.003163993523464569,0.009339828749184917,0.005521765394643124,2.5e-05,0.0,0.0,0.0,2.5e-05,0.0,0.0,0.0,2.5e-05,0.043879816157592795,0.002356065419286424,9.798658031580425,2.5e-05,0.0,0.0,0.0,2.5e-05,0.0,0.0,0.0,2.5e-05
403.66,20173,403,660000000,base,-3.945911921452168e-05,-0.0021283011865889916,-0.04157242970627485,0.9991332252834723,2.6030820491461885e-07,0.0,0.0,0.0,2.6030820491461885e-07,0.0,0.0,0.0,0.0,0.0038718744123503153,0.008557784651870346,-0.004441355975119818,2.5e-05,0.0,0.0,0.0,2.5e-05,0.0,0.0,0.0,2.5e-05,0.04492091829475739,-0.0002571003932850891,9.803056946825572,2.5e-05,0.0,0.0,0.0,2.5e-05,0.0,0.0,0.0,2.5e-05
403.68,20174,403,680000000,base,-3.94875986723702e-05,-0.0021283970797064174,-0.04157242227973801,0.999133225387083,2.6030820491461885e-07,0.0,0.0,0.0,2.6030820491461885e-07,0.0,0.0,0.0,0.0,0.0034740650209932906,0.015979887977399018,-0.004559622180770519,2.5e-05,0.0,0.0,0.0,2.5e-05,0.0,0.0,0.0,2.5e-05,0.03217234532537765,-0.0007610010942802716,9.79956856885131,2.5e-05,0.0,0.0,0.0,2.5e-05,0.0,0.0,0.0,2.5e-05
403.7,20175,403,700000000,base,-3.9503783029951254e-05,-0.002128324862131504,-0.041572414866083256,0.9991332258487525,2.6030820491461885e-07,0.0,0.0,0.0,2.6030820491461885e-07,0.0,0.0,0.0,0.0,-0.001467170248234617,0.010269998179291,-0.0030128657752170667,2.5e-05,0.0,0.0,0.0,2.5e-05,0.0,0.0,0.0,2.5e-05,0.04392812809202002,-0.002262564408762417,9.802334689438485,2.5e-05,0.0,0.0,0.0,2.5e-05,0.0,0.0,0.0,2.5e-05
403.72,20176,403,720000000,base,-3.930592752999189e-05,-0.0021284783950865963,-0.04157240794587718,0.9991332258174319,2.6030820491461885e-07,0.0,0.0,0.0,2.6030820491461885e-07,0.0,0.0,0.0,0.0,0.004982541632896799,0.0146932598254746,0.007635970203866616,2.5e-05,0.0,0.0,0.0,2.5e-05,0.0,0.0,0.0,2.5e-05,0.03911452485596595,-0.0016332180191687877,9.811986936168935,2.5e-05,0.0,0.0,0.0,2.5e-05,0.0,0.0,0.0,2.5e-05
403.74,20177,403,740000000,base,-3.9023973194813184e-05,-0.0021285034939625995,-0.04157240120062933,0.9991332260556745,2.6030820491461885e-07,0.0,0.0,0.0,2.6030820491461885e-07,0.0,0.0,0.0,0.0,0.00465912835728053,0.003674907964031372,-0.007632709611456469,2.5e-05,0.0,0.0,0.0,2.5e-05,0.0,0.0,0.0,2.5e-05,0.04409761061108458,0.0009066391079084661,9.8040832029829,2.5e-05,0.0,0.0,0.0,2.5e-05,0.0,0.0,0.0,2.5e-05
403.76,20178,403,760000000,base,-3.8871072601138786e-05,-0.0021286002976385328,-0.04157239417755048,0.9991332261476239,2.6030820491461885e-07,0.0,0.0,0.0,2.6030820491461885e-07,0.0,0.0,0.0,0.0,0.00109828996509225,0.007298066374802988,-0.005668117083328354,2.5e-05,0.0,0.0,0.0,2.5e-05,0.0,0.0,0.0,2.5e-05,0.038341439035732415,0.002224192061928128,9.810491990750348,2.5e-05,0.0,0.0,0.0,2.5e-05,0.0,0.0,0.0,2.5e-05
403.78,20179,403,780000000,base,-3.893649478417817e-05,-0.0021286781693865206,-0.041572386671458635,0.9991332262914888,2.6030820491461885e-07,0.0,0.0,0.0,2.6030820491461885e-07,0.0,0.0,0.0,0.0,0.0027866874615436544,0.001964819778581484,0.0012768892976780394,2.5e-05,0.0,0.0,0.0,2.5e-05,0.0,0.0,0.0,2.5e-05,0.04681217540961374,0.003208887506380641,9.81423962610494,2.5e-05,0.0,0.0,0.0,2.5e-05,0.0,0.0,0.0,2.5e-05
403.8,20180,403,800000000,base,-3.894373298074532e-05,-0.0021287092079193106,-0.04157237929038257,0.999133226532193,2.6030820491461885e-07,0.0,0.0,0.0,2.6030820491461885e-07,0.0,0.0,0.0,0.0,0.006428214342607155,0.0015430009338084569,0.0074454551095942765,2.5e-05,0.0,0.0,0.0,2.5e-05,0.0,0.0,0.0,2.5e-05,0.041478587627530025,-0.0006838905297631853,9.801355847185599,2.5e-05,0.0,0.0,0.0,2.5e-05,0.0,0.0,0.0,2.5e-05
403.82,20181,403,820000000,base,-3.886696622565712e-05,-0.0021285476922964825,-0.04157237207834061,0.9991332271793689,2.6030820491461885e-07,0.0,0.0,0.0,2.6030820491461885e-07,0.0,0.0,0.0,0.0,-0.004213969106271765,0.002594968293469259,-0.006696020172422087,2.5e-05,0.0,0.0,0.0,2.5e-05,0.0,0.0,0.0,2.5e-05,0.03870932772692227,0.0044466319909630785,9.814205211972132,2.5e-05,0.0,0.0,0.0,2.5e-05,0.0,0.0,0.0,2.5e-05
403.84,20182,403,840000000,base,-3.876484229579738e-05,-0.0021286738140265005,-0.041572364948657244,0.9991332272112945,2.6030820491461885e-07,0.0,0.0,0.0,2.6030820491461885e-07,0.0,0.0,0.0,0.0,0.010669844368793901,0.008166071511091225,0.000169280919057318,2.5e-05,0.0,0.0,0.0,2.5e-05,0.0,0.0,0.0,2.5e-05,0.036918775875281494,0.004306676389197933,9.807228600423935,2.5e-05,0.0,0.0,0.0,2.5e-05,0.0,0.0,0.0,2.5e-05
403.86,20183,403,860000000,base,-3.877673585819229e-05,-0.0021285016779969096,-0.04157235754135507,0.9991332278857634,2.6030820491461885e-07,0.0,0.0,0.0,2.6030820491461885e-07,0.0,0.0,0.0,0.0,0.0056235338949842915,0.01731195811695392,-0.0027846840543012488,2.5e-05,0.0,0.0,0.0,2.5e-05,0.0,0.0,0.0,2.5e-05,0.03913242910429957,0.003025931331040537,9.795735487850155,2.5e-05,0.0,0.0,0.0,2.5e-05,0.0,0.0,0.0,2.5e-05
403.88,20184,403,880000000,base,-3.873579506224799e-05,-0.0021284950311439665,-0.041572350266188766,0.9991332282042198,2.6030820491461885e-07,0.0,0.0,0.0,2.6030820491461885e-07,0.0,0.0,0.0,0.0,0.0013146921308602399,0.00873874523505983,0.0017594661684563505,2.5e-05,0.0,0.0,0.0,2.5e-05,0.0,0.0,0.0,2.5e-05,0.03816639940214715,-0.0006601303737526233,9.806596568734331,2.5e-05,0.0,0.0,0.0,2.5e-05,0.0,0.0,0.0,2.5e-05
403.9,20185,403,900000000,base,-3.867223092966444e-05,-0.0021284359331369554,-0.04157234303701899,0.9991332286333737,2.6030820491461885e-07,0.0,0.0,0.0,2.6030820491461885e-07,0.0,0.0,0.0,0.0,0.006192159053782225,0.0030381904108608892,-0.00458166690535372,2.5e-05,0.0,0.0,0.0,2.5e-05,0.0,0.0,0.0,2.5e-05,0.043251484332252725,-0.008013241127355023,9.805797343708809,2.5e-05,0.0,0.0,0.0,2.5e-05,0.0,0.0,0.0,2.5e-05
403.92,20186,403,920000000,base,-3.8681857877055267e-05,-0.002128300790979326,-0.0415723356401865,0.9991332292286532,2.6030820491461885e-07,0.0,0.0,0.0,2.6030820491461885e-07,0.0,0.0,0.0,0.0,0.0007707198197129863,0.0031816057417667887,-0.0018271664210065082,2.5e-05,0.0,0.0,0.0,2.5e-05,0.0,0.0,0.0,2.5e-05,0.04291393316903242,0.0016973918543496764,9.810089775727763,2.5e-05,0.0,0.0,0.0,2.5e-05,0.0,0.0,0.0,2.5e-05
403.94,20187,403,940000000,base,-3.878726633251887e-05,-0.0021283599063064156,-0.04157232804992043,0.9991332294144596,2.6030820491461885e-07,0.0,0.0,0.0,2.6030820491461885e-07,0.0,0.0,0.0,0.0,0.004716622596832294,0.009062749802343038,-0.0008153518221827777,2.5e-05,0.0,0.0,0.0,2.5e-05,0.0,0.0,0.0,2.5e-05,0.045656246581568166,-0.004518795430158428,9.80762083895703,2.5e-05,0.0,0.0,0.0,2.5e-05,0.0,0.0,0.0,2.5e-05
403.96,20188,403,960000000,base,-3.8896218266280106e-05,-0.0021283292343993398,-0.041572320444544404,0.9991332297920084,2.6030820491461885e-07,0.0,0.0,0.0,2.6030820491461885e-07,0.0,0.0,0.0,0.0,0.004485300940224917,0.003667964223762077,0.0019068666678145382,2.5e-05,0.0,0.0,0.0,2.5e-05,0.0,0.0,0.0,2.5e-05,0.04219080685163489,0.0012193414215180354,9.803496392835058,2.5e-05,0.0,0.0,0.0,2.5e-05,0.0,0.0,0.0,2.5e-05
403.98,20189,403,980000000,base,-3.873999197370914e-05,-0.0021282331458489143,-0.04157231341956043,0.9991332302950573,2.6030820491461885e-07,0.0,0.0,0.0,2.6030820491461885e-07,0.0,0.0,0.0,0.0,0.012335050860801654,-0.0026041763268683142,-0.00011429441385230662,2.5e-05,0.0,0.0,0.0,2.5e-05,0.0,0.0,0.0,2.5e-05,0.0419506217115075,0.015283339207382493,9.79954638613109,2.5e-05,0.0,0.0,0.0,2.5e-05,0.0,0.0,0.0,2.5e-05
404.0,20190,404,0,base,-3.89280309235054e-05,-0.0021280664050491384,-0.041572305628869086,0.9991332309670636,2.6030820491461885e-07,0.0,0.0,0.0,2.6030820491461885e-07,0.0,0.0,0.0,0.0,-0.0028957338182213957,0.008112320042462687,-0.003937724037770762,2.5e-05,0.0,0.0,0.0,2.5e-05,0.0,0.0,0.0,2.5e-05,0.036142461308693086,-0.0025663589180478547,9.810152005135956,2.5e-05,0.0,0.0,0.0,2.5e-05,0.0,0.0,0.0,2.5e-05
404.02,20191,404,20000000,base,-3.897265842907693e-05,-0.002127994757161063,-0.04157229816402967,0.999133231428525,2.6030820491461885e-07,0.0,0.0,0.0,2.6030820491461885e-07,0.0,0.0,0.0,0.0,-0.003171564609759984,0.017708388276478408,0.004136349070667605,2.5e-05,0.0,0.0,0.0,2.5e-05,0.0,0.0,0.0,2.5e-05,0.05075010360306489,-0.004294195110222797,9.79649282802485,2.5e-05,0.0,0.0,0.0,2.5e-05,0.0,0.0,0.0,2.5e-05
404.04,20192,404,40000000,base,-3.8843951774242746e-05,-0.002128144673216169,-0.041572291102396144,0.9991332314080514,2.6030820491461885e-07,0.0,0.0,0.0,2.6030820491461885e-07,0.0,0.0,0.0,0.0,0.006823022688994436,0.01167798421932981,-0.0009755580083650342,2.5e-05,0.0,0.0,0.0,2.5e-05,0.0,0.0,0.0,2.5e-05,0.0402820179784624,-0.0031983113819918597,9.817084789686223,2.5e-05,0.0,0.0,0.0,2.5e-05,0.0,0.0,0.0,2.5e-05
404.06,20193,404,60000000,base,-3.886641646505907e-05,-0.002127914027977359,-0.041572283673750855,0.999133232207517,2.6030820491461885e-07,0.0,0.0,0.0,2.6030820491461885e-07,0.0,0.0,0.0,0.0,0.0109472097801898,-0.004299378288667204,0.004307744302266022,2.5e-05,0.0,0.0,0.0,2.5e-05,0.0,0.0,0.0,2.5e-05,0.036956660762682704,0.0025766475464189358,9.810768777374639,2.5e-05,0.0,0.0,0.0,2.5e-05,0.0,0.0,0.0,2.5e-05
404.08,20194,404,80000000,base,-3.862907587037984e-05,-0.002127872667726407,-0.04157227683635631,0.999133232589301,2.6030820491461885e-07,0.0,0.0,0.0,2.6030820491461885e-07,0.0,0.0,0.0,0.0,-0.0014734567149152825,0.0021240153177037673,-0.0004415346001100213,2.5e-05,0.0,0.0,0.0,2.5e-05,0.0,0.0,0.0,2.5e-05,0.03757484086389767,-0.006851960111619421,9.801429021499176,2.5e-05,0.0,0.0,0.0,2.5e-05,0.0,0.0,0.0,2.5e-05
404.1,20195,404,100000000,base,-3.863032062522009e-05,-0.0021278049075822703,-0.04157226947053951,0.9991332330400398,2.6030820491461885e-07,0.0,0.0,0.0,2.6030820491461885e-07,0.0,0.0,0.0,0.0,-0.0018554543719534048,-0.004689545515305046,-0.004985534839999244,2.5e-05,0.0,0.0,0.0,2.5e-05,0.0,0.0,0.0,2.5e-05,0.04987887304785296,-0.003337604307792674,9.816924989257133,2.5e-05,0.0,0.0,0.0,2.5e-05,0.0,0.0,0.0,2.5e-05
404.12,20196,404,120000000,base,-3.862663320513848e-05,-0.0021278055676112527,-0.0415722621224399,0.999133233344519,2.6030820491461885e-07,0.0,0.0,0.0,2.6030820491461885e-07,0.0,0.0,0.0,0.0,0.0006995809474323485,0.014675265997047184,0.0008053431316989309,2.5e-05,0.0,0.0,0.0,2.5e-05,0.0,0.0,0.0,2.5e-05,0.05189881362006965,0.0009662502189312378,9.805909990183272,2.5e-05,0.0,0.0,0.0,2.5e-05,0.0,0.0,0.0,2.5e-05
404.14,20197,404,140000000,base,-3.866655482710503e-05,-0.0021276888291852794,-0.04157225466829855,0.9991332339017344,2.6030820491461885e-07,0.0,0.0,0.0,2.6030820491461885e-07,0.0,0.0,0.0,0.0,0.007089643757203396,0.005280366694539046,-0.0012269908984638605,2.5e-05,0.0,0.0,0.0,2.5e-05,0.0,0.0,0.0,2.5e-05,0.04536479793447247,-0.0018495385633080252,9.808243499228487,2.5e-05,0.0,0.0,0.0,2.5e-05,0.0,0.0,0.0,2.5e-05
404.16,20198,404,160000000,base,-3.88112188678846e-05,-0.0021276652443315085,-0.041572246991923356,0.999133234265751,2.6030820491461885e-07,0.0,0.0,0.0,2.6030820491461885e-07,0.0,0.0,0.0,0.0,-0.004675773365182174,0.00746337498494143,-0.0009638943861200667,2.5e-05,0.0,0.0,0.0,2.5e-05,0.0,0.0,0.0,2.5e-05,0.0280932465641198,0.004294251621434908,9.806079736475283,2.5e-05,0.0,0.0,0.0,2.5e-05,0.0,0.0,0.0,2.5e-05
404.18,20199,404,180000000,base,-3.8978999484267064e-05,-0.002127353956754944,-0.04157223923954941,0.9991332352446245,2.6030820491461885e-07,0.0,0.0,0.0,2.6030820491461885e-07,0.0,0.0,0.0,0.0,0.002756533264024941,0.004624524427112186,-0.0009164641598238129,2.5e-05,0.0,0.0,0.0,2.5e-05,0.0,0.0,0.0,2.5e-05,0.04732214875842489,-0.004409218829104835,9.798698421184431,2.5e-05,0.0,0.0,0.0,2.5e-05,0.0,0.0,0.0,2.5e-05
404.2,20200,404,200000000,base,-3.8939241964521486e-05,-0.002127474856093415,-0.04157223198471041,0.9991332352906102,2.6030820491461885e-07,0.0,0.0,0.0,2.6030820491461885e-07,0.0,0.0,0.0,0.0,-0.007486107139340246,0.012029102035186362,0.0022673959984767064,2.5e-05,0.0,0.0,0.0,2.5e-05,0.0,0.0,0.0,2.5e-05,0.03936239354533013,0.0012024074446103815,9.80224703843637,2.5e-05,0.0,0.0,0.0,2.5e-05,0.0,0.0,0.0,2.5e-05
404.22,20201,404,220000000,base,-3.889130355889806e-05,-0.0021276214814967944,-0.041572224750952215,0.9991332352812384,2.6030820491461885e-07,0.0,0.0,0.0,2.6030820491461885e-07,0.0,0.0,0.0,0.0,0.00015562494490668194,-0.0010046077159517146,0.0025194522505185986,2.5e-05,0.0,0.0,0.0,2.5e-05,0.0,0.0,0.0,2.5e-05,0.050415363456502375,-0.0028236446053555323,9.809812459075829,2.5e-05,0.0,0.0,0.0,2.5e-05,0.0,0.0,0.0,2.5e-05
404.24,20202,404,240000000,base,-3.892176857318097e-05,-0.0021277168828529396,-0.04157221734023053,0.9991332353852407,2.6030820491461885e-07,0.0,0.0,0.0,2.6030820491461885e-07,0.0,0.0,0.0,0.0,0.010013066436689123,0.005654588500501021,-0.001418581729088567,2.5e-05,0.0,0.0,0.0,2.5e-05,0.0,0.0,0.0,2.5e-05,0.051683029278147316,6.894347648539684e-05,9.796056225458745,2.5e-05,0.0,0.0,0.0,2.5e-05,0.0,0.0,0.0,2.5e-05
404.26,20203,404,260000000,base,-3.902485964601027e-05,-0.0021276136652357844,-0.041572209752145955,0.9991332359167496,2.6030820491461885e-07,0.0,0.0,0.0,2.6030820491461885e-07,0.0,0.0,0.0,0.0,0.008292418077124995,0.0059278663753634065,0.0041520504856735994,2.5e-05,0.0,0.0,0.0,2.5e-05,0.0,0.0,0.0,2.5e-05,0.04630444469578003,-0.005322716193960642,9.816358018021463,2.5e-05,0.0,0.0,0.0,2.5e-05,0.0,0.0,0.0,2.5e-05
404.28,20204,404,280000000,base,-3.9069729895425196e-05,-0.002127512958093098,-0.041572202293556466,0.9991332364397818,2.6030820491461885e-07,0.0,0.0,0.0,2.6030820491461885e-07,0.0,0.0,0.0,0.0,0.0054492208469536715,0.007836145140880301,0.002630839547183704,2.5e-05,0.0,0.0,0.0,2.5e-05,0.0,0.0,0.0,2.5e-05,0.043671078236420566,-0.0034745609523362444,9.81089170591411,2.5e-05,0.0,0.0,0.0,2.5e-05,0.0,0.0,0.0,2.5e-05
404.3,20205,404,300000000,base,-3.90049764304692e-05,-0.002127514135834373,-0.041572195086830126,0.9991332367396634,2.6030820491461885e-07,0.0,0.0,0.0,2.6030820491461885e-07,0.0,0.0,0.0,0.0,-0.0004064678263574102,-0.0003055142649496089,0.002499345610028494,2.5e-05,0.0,0.0,0.0,2.5e-05,0.0,0.0,0.0,2.5e-05,0.03820305812035821,-0.001165061484418879,9.806857656644791,2.5e-05,0.0,0.0,0.0,2.5e-05,0.0,0.0,0.0,2.5e-05
404.32,20206,404,320000000,base,-3.897725932789504e-05,-0.002127658462457598,-0.04157218781182717,0.9991332367361113,2.6030820491461885e-07,0.0,0.0,0.0,2.6030820491461885e-07,0.0,0.0,0.0,0.0,0.003817515617546512,0.004138515569462953,-0.004174066445799649,2.5e-05,0.0,0.0,0.0,2.5e-05,0.0,0.0,0.0,2.5e-05,0.05415359275243048,0.003589834860038913,9.814166744706894,2.5e-05,0.0,0.0,0.0,2.5e-05,0.0,0.0,0.0,2.5e-05
404.34,20207,404,340000000,base,-3.9132080186190184e-05,-0.0021275993124319444,-0.041572180116340396,0.999133237176214,2.6030820491461885e-07,0.0,0.0,0.0,2.6030820491461885e-07,0.0,0.0,0.0,0.0,0.004537735426904211,0.007936726454517222,-0.002518656939829774,2.5e-05,0.0,0.0,0.0,2.5e-05,0.0,0.0,0.0,2.5e-05,0.04855009381829881,0.0026005175689901186,9.807046060798893,2.5e-05,0.0,0.0,0.0,2.5e-05,0.0,0.0,0.0,2.5e-05
404.36,20208,404,360000000,base,-3.9039171391518e-05,-0.0021276309872655078,-0.04157217297666671,0.9991332374094675,2.6030820491461885e-07,0.0,0.0,0.0,2.6030820491461885e-07,0.0,0.0,0.0,0.0,0.0010205529891893644,-0.002956858555824778,0.0014338017431473507,2.5e-05,0.0,0.0,0.0,2.5e-05,0.0,0.0,0.0,2.5e-05,0.03714105299319106,0.006725236989979542,9.80512663309652,2.5e-05,0.0,0.0,0.0,2.5e-05,0.0,0.0,0.0,2.5e-05
404.38,20209,404,380000000,base,-3.926108439023051e-05,-0.002127707186133523,-0.041572165146564054,0.9991332375643021,2.6030820491461885e-07,0.0,0.0,0.0,2.6030820491461885e-07,0.0,0.0,0.0,0.0,0.0002334124333556631,0.009615908126122084,-0.0021305034329987304,2.5e-05,0.0,0.0,0.0,2.5e-05,0.0,0.0,0.0,2.5e-05,0.04294073332894497,0.0014561536296945508,9.808423987740001,2.5e-05,0.0,0.0,0.0,2.5e-05,0.0,0.0,0.0,2.5e-05
404.4,20210,404,400000000,base,-3.928245355009164e-05,-0.0021277591096817484,-0.04157215775781518,0.9991332377603196,2.6030820491461885e-07,0.0,0.0,0.0,2.6030820491461885e-07,0.0,0.0,0.0,0.0,-0.0010950952340398378,0.0028914377453051997,0.00140850715406073,2.5e-05,0.0,0.0,0.0,2.5e-05,0.0,0.0,0.0,2.5e-05,0.049257180140625675,-0.00038256710246041526,9.800236413400777,2.5e-05,0.0,0.0,0.0,2.5e-05,0.0,0.0,0.0,2.5e-05
404.42,20211,404,420000000,base,-3.928401993496453e-05,-0.0021278488081532183,-0.04157215041688382,0.9991332378746747,2.6030820491461885e-07,0.0,0.0,0.0,2.6030820491461885e-07,0.0,0.0,0.0,0.0,0.0005327511932895612,0.007683658126238243,0.0004707430928067879,2.5e-05,0.0,0.0,0.0,2.5e-05,0.0,0.0,0.0,2.5e-05,0.03813215576878328,-0.0016025006628077767,9.81283254480173,2.5e-05,0.0,0.0,0.0,2.5e-05,0.0,0.0,0.0,2.5e-05
404.44,20212,404,440000000,base,-3.919589469820052e-05,-0.0021278859247909196,-0.041572143270018645,0.9991332380964562,2.6030820491461885e-07,0.0,0.0,0.0,2.6030820491461885e-07,0.0,0.0,0.0,0.0,-0.0004068227630098748,0.00204008699828445,-0.0014580523755906769,2.5e-05,0.0,0.0,0.0,2.5e-05,0.0,0.0,0.0,2.5e-05,0.048703355590802466,-0.002685915837965766,9.81082911800599,2.5e-05,0.0,0.0,0.0,2.5e-05,0.0,0.0,0.0,2.5e-05
404.46,20213,404,460000000,base,-3.92553811260304e-05,-0.002127801422458345,-0.041572135787090604,0.9991332385854358,2.6030820491461885e-07,0.0,0.0,0.0,2.6030820491461885e-07,0.0,0.0,0.0,0.0,0.000702093977254418,-0.002787189868366821,-0.0037426315253083478,2.5e-05,0.0,0.0,0.0,2.5e-05,0.0,0.0,0.0,2.5e-05,0.04970889943910485,0.0008931012857221862,9.810431673032546,2.5e-05,0.0,0.0,0.0,2.5e-05,0.0,0.0,0.0,2.5e-05
404.48,20214,404,480000000,base,-3.929541784204044e-05,-0.0021278869692122177,-0.041572128363008026,0.9991332387105766,2.6030820491461885e-07,0.0,0.0,0.0,2.6030820491461885e-07,0.0,0.0,0.0,0.0,0.0031448757425671073,0.011187988907749018,0.0022143413334215728,2.5e-05,0.0,0.0,0.0,2.5e-05,0.0,0.0,0.0,2.5e-05,0.048849531925056394,-0.0024567078460339623,9.807213404663134,2.5e-05,0.0,0.0,0.0,2.5e-05,0.0,0.0,0.0,2.5e-05
404.5,20215,404,500000000,base,-3.9254684038659687e-05,-0.0021278520792498644,-0.04157212110723623,0.9991332390883829,2.6030820491461885e-07,0.0,0.0,0.0,2.6030820491461885e-07,0.0,0.0,0.0,0.0,0.012954790787525202,0.0018140564523669203,-0.003239441661602576,2.5e-05,0.0,0.0,0.0,2.5e-05,0.0,0.0,0.0,2.5e-05,0.037744481860964144,0.005489576036953989,9.811841543384487,2.5e-05,0.0,0.0,0.0,2.5e-05,0.0,0.0,0.0,2.5e-05
404.52,20216,404,520000000,base,-3.922833498980154e-05,-0.002127756651487958,-0.041572113815018415,0.9991332395960614,2.6030820491461885e-07,0.0,0.0,0.0,2.6030820491461885e-07,0.0,0.0,0.0,0.0,0.0013232170460084282,0.013503221754859407,-0.0016054780003959682,2.5e-05,0.0,0.0,0.0,2.5e-05,0.0,0.0,0.0,2.5e-05,0.04051883674258671,0.0012721585371072435,9.814490612810214,2.5e-05,0.0,0.0,0.0,2.5e-05,0.0,0.0,0.0,2.5e-05
404.54,20217,404,540000000,base,-3.920159379250996e-05,-0.002127797788084236,-0.04157210653657883,0.9991332398123484,2.6030820491461885e-07,0.0,0.0,0.0,2.6030820491461885e-07,0.0,0.0,0.0,0.0,-0.0026741964255583505,0.00665368621842467,-0.009530187304313322,2.5e-05,0.0,0.0,0.0,2.5e-05,0.0,0.0,0.0,2.5e-05,0.040622703908370694,0.0011855335504558054,9.801071684978526,2.5e-05,0.0,0.0,0.0,2.5e-05,0.0,0.0,0.0,2.5e-05
404.56,20218,404,560000000,base,-3.9293810512540816e-05,-0.0021277837831345744,-0.04157209899127673,0.9991332401524974,2.6030820491461885e-07,0.0,0.0,0.0,2.6030820491461885e-07,0.0,0.0,0.0,0.0,0.005296357651465973,0.01022260277421976,0.005661107083591738,2.5e-05,0.0,0.0,0.0,2.5e-05,0.0,0.0,0.0,2.5e-05,0.041448558861792655,0.0002630609549115917,9.813504797623473,2.5e-05,0.0,0.0,0.0,2.5e-05,0.0,0.0,0.0,2.5e-05
404.58,20219,404,580000000,base,-3.9522723024203915e-05,-0.0021278518588768967,-0.041572091152196206,0.9991332403246599,2.6030820491461885e-07,0.0,0.0,0.0,2.6030820491461885e-07,0.0,0.0,0.0,0.0,-0.007057183519013407,0.005175240561418704,0.003975010852790159,2.5e-05,0.0,0.0,0.0,2.5e-05,0.0,0.0,0.0,2.5e-05,0.03767068315994652,0.0008490935653373466,9.814457722855336,2.5e-05,0.0,0.0,0.0,2.5e-05,0.0,0.0,0.0,2.5e-05
404.6,20220,404,600000000,base,-3.955862669910894e-05,-0.0021276952468360635,-0.04157208371994016,0.9991332409660053,2.6030820491461885e-07,0.0,0.0,0.0,2.6030820491461885e-07,0.0,0.0,0.0,0.0,0.00514444384910779,0.0009059330120730966,0.001319640588305494,2.5e-05,0.0,0.0,0.0,2.5e-05,0.0,0.0,0.0,2.5e-05,0.04208764543174129,-0.007699351617972151,9.800243472517575,2.5e-05,0.0,0.0,0.0,2.5e-05,0.0,0.0,0.0,2.5e-05
404.62,20221,404,620000000,base,-3.979378932078434e-05,-0.0021276813909610085,-0.04157207586118061,0.999133241313162,2.6030820491461885e-07,0.0,0.0,0.0,2.6030820491461885e-07,0.0,0.0,0.0,0.0,-0.005380417000934419,0.008160707350868397,-0.00583773908699468,2.5e-05,0.0,0.0,0.0,2.5e-05,0.0,0.0,0.0,2.5e-05,0.04073409264459392,-0.008676272064890966,9.803306811405477,2.5e-05,0.0,0.0,0.0,2.5e-05,0.0,0.0,0.0,2.5e-05
404.64,20222,404,640000000,base,-3.980213086272278e-05,-0.0021276725295923415,-0.04157206850441355,0.9991332416378016,2.6030820491461885e-07,0.0,0.0,0.0,2.6030820491461885e-07,0.0,0.0,0.0,0.0,-0.0032492204153460485,0.006184279880517301,-0.0002586579426219508,2.5e-05,0.0,0.0,0.0,2.5e-05,0.0,0.0,0.0,2.5e-05,0.038964101495417854,0.0015379102463896812,9.801972819013288,2.5e-05,0.0,0.0,0.0,2.5e-05,0.0,0.0,0.0,2.5e-05
404.66,20223,404,660000000,base,-3.999560093321898e-05,-0.002127889870083737,-0.04157206075979383,0.9991332414894604,2.6030820491461885e-07,0.0,0.0,0.0,2.6030820491461885e-07,0.0,0.0,0.0,0.0,0.007707760220725338,0.008645565947940127,5.2686062875296464e-05,2.5e-05,0.0,0.0,0.0,2.5e-05,0.0,0.0,0.0,2.5e-05,0.04982943375472625,-0.0011539588109907295,9.801877682690563,2.5e-05,0.0,0.0,0.0,2.5e-05,0.0,0.0,0.0,2.5e-05
404.68,20224,404,680000000,base,-3.999424661677384e-05,-0.0021281074394012794,-0.041572053446092584,0.9991332413304352,2.6030820491461885e-07,0.0,0.0,0.0,2.6030820491461885e-07,0.0,0.0,0.0,0.0,0.003048531773823994,0.0011729317995513413,-0.0093655852582918,2.5e-05,0.0,0.0,0.0,2.5e-05,0.0,0.0,0.0,2.5e-05,0.04109213240121782,-0.0027896943403399473,9.805732050269581,2.5e-05,0.0,0.0,0.0,2.5e-05,0.0,0.0,0.0,2.5e-05
404.7,20225,404,700000000,base,-4.004976555374821e-05,-0.002128271020107695,-0.041572046002711444,0.9991332412894837,2.6030820491461885e-07,0.0,0.0,0.0,2.6030820491461885e-07,0.0,0.0,0.0,0.0,0.011486272725169996,0.010251020236763535,-0.002863395181978881,2.5e-05,0.0,0.0,0.0,2.5e-05,0.0,0.0,0.0,2.5e-05,0.03619812596430446,0.0035037162865049747,9.80915625799457,2.5e-05,0.0,0.0,0.0,2.5e-05,0.0,0.0,0.0,2.5e-05
404.72,20226,404,720000000,base,-4.013258224848339e-05,-0.0021283298605424177,-0.04157203849042384,0.9991332414733939,2.6030820491461885e-07,0.0,0.0,0.0,2.6030820491461885e-07,0.0,0.0,0.0,0.0,0.012867754517491526,0.004257886805864921,-0.0018129630059013327,2.5e-05,0.0,0.0,0.0,2.5e-05,0.0,0.0,0.0,2.5e-05,0.042628207100349605,7.2416607258144e-05,9.80439004453726,2.5e-05,0.0,0.0,0.0,2.5e-05,0.0,0.0,0.0,2.5e-05
404.74,20227,404,740000000,base,-4.013781100973272e-05,-0.002128367618536974,-0.04157203114829139,0.999133241698244,2.6030820491461885e-07,0.0,0.0,0.0,2.6030820491461885e-07,0.0,0.0,0.0,0.0,0.002002241957930408,0.004723753766131096,-0.00869923572777141,2.5e-05,0.0,0.0,0.0,2.5e-05,0.0,0.0,0.0,2.5e-05,0.0336849872952022,0.0027764801566748506,9.80439127352114,2.5e-05,0.0,0.0,0.0,2.5e-05,0.0,0.0,0.0,2.5e-05
404.76,20228,404,760000000,base,-4.0208086555188105e-05,-0.002128229915005711,-0.04157202364758608,0.999133242300837,2.6030820491461885e-07,0.0,0.0,0.0,2.6030820491461885e-07,0.0,0.0,0.0,0.0,-0.0019467933016756988,0.002450441299461892,-0.008319290575410315,2.5e-05,0.0,0.0,0.0,2.5e-05,0.0,0.0,0.0,2.5e-05,0.04897002152562656,0.003470812074162545,9.801349412189955,2.5e-05,0.0,0.0,0.0,2.5e-05,0.0,0.0,0.0,2.5e-05
404.78,20229,404,780000000,base,-4.021178684162393e-05,-0.002128335284615631,-0.04157201631630377,0.9991332423812778,2.6030820491461885e-07,0.0,0.0,0.0,2.6030820491461885e-07,0.0,0.0,0.0,0.0,-0.007519450518338618,0.006837893535255313,0.003902818423609212,2.5e-05,0.0,0.0,0.0,2.5e-05,0.0,0.0,0.0,2.5e-05,0.04137681675564633,-0.0034035493523208895,9.797150328846698,2.5e-05,0.0,0.0,0.0,2.5e-05,0.0,0.0,0.0,2.5e-05
404.8,20230,404,800000000,base,-4.015190824284256e-05,-0.0021284018789409415,-0.04157200912266437,0.9991332425411393,2.6030820491461885e-07,0.0,0.0,0.0,2.6030820491461885e-07,0.0,0.0,0.0,0.0,0.004947510271367505,0.00035662660674333263,0.0029238500836004876,2.5e-05,0.0,0.0,0.0,2.5e-05,0.0,0.0,0.0,2.5e-05,0.050534689617848426,0.0010472912343988537,9.80891162318773,2.5e-05,0.0,0.0,0.0,2.5e-05,0.0,0.0,0.0,2.5e-05
404.82,20231,404,820000000,base,-4.0260868706142235e-05,-0.0021283890611069793,-0.04157200154984809,0.9991332428791496,2.6030820491461885e-07,0.0,0.0,0.0,2.6030820491461885e-07,0.0,0.0,0.0,0.0,0.002820960091046079,0.0013465690318723367,0.001226132682417525,2.5e-05,0.0,0.0,0.0,2.5e-05,0.0,0.0,0.0,2.5e-05,0.03632160314138873,-0.0034379860882469667,9.810531812313917,2.5e-05,0.0,0.0,0.0,2.5e-05,0.0,0.0,0.0,2.5e-05
404.84,20232,404,840000000,base,-4.036383195197711e-05,-0.0021284517005955997,-0.04157199399772969,0.9991332430557858,2.6030820491461885e-07,0.0,0.0,0.0,2.6030820491461885e-07,0.0,0.0,0.0,0.0,0.005481699958288133,0.0048431051160035135,0.0005245312080834623,2.5e-05,0.0,0.0,0.0,2.5e-05,0.0,0.0,0.0,2.5e-05,0.049178537653210105,0.0031047815922881157,9.802142676171913,2.5e-05,0.0,0.0,0.0,2.5e-05,0.0,0.0,0.0,2.5e-05
404.86,20233,404,860000000,base,-4.042357738519317e-05,-0.002128478151833412,-0.04157198653852653,0.999133243307384,2.6030820491461885e-07,0.0,0.0,0.0,2.6030820491461885e-07,0.0,0.0,0.0,0.0,-0.001411042905845772,0.0028584159538090144,-0.0021597789251121702,2.5e-05,0.0,0.0,0.0,2.5e-05,0.0,0.0,0.0,2.5e-05,0.029931909162379346,-0.0013031498128745094,9.811737000674203,2.5e-05,0.0,0.0,0.0,2.5e-05,0.0,0.0,0.0,2.5e-05
404.88,20234,404,880000000,base,-4.038023531825777e-05,-0.002128317097994092,-0.04157197929092367,0.9991332439537792,2.6030820491461885e-07,0.0,0.0,0.0,2.6030820491461885e-07,0.0,0.0,0.0,0.0,0.0030016086556430743,-0.0019622497227583732,-0.002688112544787585,2.5e-05,0.0,0.0,0.0,2.5e-05,0.0,0.0,0.0,2.5e-05,0.04059715316537176,0.0009914270912840415,9.800632443041074,2.5e-05,0.0,0.0,0.0,2.5e-05,0.0,0.0,0.0,2.5e-05
404.9,20235,404,900000000,base,-4.0314821189014094e-05,-0.002128386315678967,-0.04157197211333726,0.9991332441076187,2.6030820491461885e-07,0.0,0.0,0.0,2.6030820491461885e-07,0.0,0.0,0.0,0.0,0.001457638340934766,0.009898461996519926,-0.0030564777479176186,2.5e-05,0.0,0.0,0.0,2.5e-05,0.0,0.0,0.0,2.5e-05,0.04543374647337023,0.003676553345776637,9.801656673581018,2.5e-05,0.0,0.0,0.0,2.5e-05,0.0,0.0,0.0,2.5e-05
404.92,20236,404,920000000,base,-4.015070527496886e-05,-0.002128441835376006,-0.04157196515318589,0.9991332442855541,2.6030820491461885e-07,0.0,0.0,0.0,2.6030820491461885e-07,0.0,0.0,0.0,0.0,0.004044798618215885,0.002017395846377098,-0.004165219076076175,2.5e-05,0.0,0.0,0.0,2.5e-05,0.0,0.0,0.0,2.5e-05,0.03477540919811069,0.006142903166298011,9.815531373845035,2.5e-05,0.0,0.0,0.0,2.5e-05,0.0,0.0,0.0,2.5e-05
404.94,20237,404,940000000,base,-4.009026279078904e-05,-0.0021284025702325024,-0.04157195795637209,0.9991332446710717,2.6030820491461885e-07,0.0,0.0,0.0,2.6030820491461885e-07,0.0,0.0,0.0,0.0,0.003965562495368708,0.006966016290150529,-0.0009206361101499528,2.5e-05,0.0,0.0,0.0,2.5e-05,0.0,0.0,0.0,2.5e-05,0.04332342454592653,-0.00013774861042564995,9.807026177047405,2.5e-05,0.0,0.0,0.0,2.5e-05,0.0,0.0,0.0,2.5e-05
404.96,20238,404,960000000,base,-3.9995730862938264e-05,-0.0021283869185032083,-0.041571950837656586,0.9991332450043978,2.6030820491461885e-07,0.0,0.0,0.0,2.6030820491461885e-07,0.0,0.0,0.0,0.0,0.005962673925191505,0.007009051444302533,-0.004461947086078096,2.5e-05,0.0,0.0,0.0,2.5e-05,0.0,0.0,0.0,2.5e-05,0.04863657522863555,0.002774772867196978,9.802837695439676,2.5e-05,0.0,0.0,0.0,2.5e-05,0.0,0.0,0.0,2.5e-05
404.98,20239,404,980000000,base,-3.9904691302857755e-05,-0.0021280237591349864,-0.04157194368091169,0.999133246079364,2.6030820491461885e-07,0.0,0.0,0.0,2.6030820491461885e-07,0.0,0.0,0.0,0.0,0.0014481112924140131,0.00837437351406824,-0.0020379490659002395,2.5e-05,0.0,0.0,0.0,2.5e-05,0.0,0.0,0.0,2.5e-05,0.0459713041616578,-0.010341279056040322,9.803188861719997,2.5e-05,0.0,0.0,0.0,2.5e-05,0.0,0.0,0.0,2.5e-05
405.0,20240,405,0,base,-4.010437180822028e-05,-0.002128099401708667,-0.041571935922149014,0.999133246233084,2.6030820491461885e-07,0.0,0.0,0.0,2.6030820491461885e-07,0.0,0.0,0.0,0.0,-0.0004542769899959654,0.006511036251352016,0.003845383860642901,2.5e-05,0.0,0.0,0.0,2.5e-05,0.0,0.0,0.0,2.5e-05,0.040410583454282,0.008259729919227935,9.800131917890205,2.5e-05,0.0,0.0,0.0,2.5e-05,0.0,0.0,0.0,2.5e-05
405.02,20241,405,20000000,base,-3.996148164440014e-05,-0.0021279470695894542,-0.04157192890015663,0.999133246855428,2.6030820491461885e-07,0.0,0.0,0.0,2.6030820491461885e-07,0.0,0.0,0.0,0.0,0.0029747388812674702,-0.00195532282276886,-0.005341716847099585,2.5e-05,0.0,0.0,0.0,2.5e-05,0.0,0.0,0.0,2.5e-05,0.03469859287071195,-0.0018764625375634315,9.811225642037831,2.5e-05,0.0,0.0,0.0,2.5e-05,0.0,0.0,0.0,2.5e-05
405.04,20242,405,40000000,base,-3.972888442281563e-05,-0.002127889431076408,-0.04157192208541672,0.9991332472710078,2.6030820491461885e-07,0.0,0.0,0.0,2.6030820491461885e-07,0.0,0.0,0.0,0.0,0.00189807057590719,0.0004334594529582991,0.0007691680523791273,2.5e-05,0.0,0.0,0.0,2.5e-05,0.0,0.0,0.0,2.5e-05,0.04111606928412483,-0.00033926742322809285,9.808013714615624,2.5e-05,0.0,0.0,0.0,2.5e-05,0.0,0.0,0.0,2.5e-05
405.06,20243,405,60000000,base,-3.967097700167494e-05,-0.0021278157241952688,-0.041571914884235374,0.9991332477299089,2.6030820491461885e-07,0.0,0.0,0.0,2.6030820491461885e-07,0.0,0.0,0.0,0.0,0.0013999972747756727,0.015299478835477338,0.0022844717925144193,2.5e-05,0.0,0.0,0.0,2.5e-05,0.0,0.0,0.0,2.5e-05,0.05121767938506766,-0.0011426268437481632,9.809181583107536,2.5e-05,0.0,0.0,0.0,2.5e-05,0.0,0.0,0.0,2.5e-05
405.08,20244,405,80000000,base,-3.9455394797776774e-05,-0.0021277718822184364,-0.0415719080345915,0.9991332481168126,2.6030820491461885e-07,0.0,0.0,0.0,2.6030820491461885e-07,0.0,0.0,0.0,0.0,0.002042742840494235,-0.003650843289242094,0.0032778304228285203,2.5e-05,0.0,0.0,0.0,2.5e-05,0.0,0.0,0.0,2.5e-05,0.030555849611138785,-0.0020123664908025946,9.807855421161872,2.5e-05,0.0,0.0,0.0,2.5e-05,0.0,0.0,0.0,2.5e-05
405.1,20245,405,100000000,base,-3.955428134562636e-05,-0.002127697514937767,-0.041571900488578964,0.9991332485852481,2.6030820491461885e-07,0.0,0.0,0.0,2.6030820491461885e-07,0.0,0.0,0.0,0.0,0.009427517144691583,0.00925681095866516,0.005262084795355474,2.5e-05,0.0,0.0,0.0,2.5e-05,0.0,0.0,0.0,2.5e-05,0.04665628998456167,0.0007116808187216459,9.795152777798162,2.5e-05,0.0,0.0,0.0,2.5e-05,0.0,0.0,0.0,2.5e-05
405.12,20246,405,120000000,base,-3.9555715011353385e-05,-0.002127646420326047,-0.04157189316054255,0.9991332489989031,2.6030820491461885e-07,0.0,0.0,0.0,2.6030820491461885e-07,0.0,0.0,0.0,0.0,-0.004580349635250872,0.008242596261169277,-0.0028364386394901693,2.5e-05,0.0,0.0,0.0,2.5e-05,0.0,0.0,0.0,2.5e-05,0.04818175984962506,-0.005727819863163619,9.810803209142538,2.5e-05,0.0,0.0,0.0,2.5e-05,0.0,0.0,0.0,2.5e-05
